{
  "name": "baltic_sea_scenario_1",
  "start_time": "2024-06-15T04:00:00Z",
  "tick_duration_seconds": 60,
  "objectives": [
    {
      "id": "amari_ab",
      "name": "Ämari Air Base",
      "lat": 59.482,
      "lon": 24.2083,
      "type": "airfield",
      "controlling_side": null,
      "country": "estonia"
    },
    {
      "id": "tallinn",
      "name": "Tallinn",
      "lat": 59.4369,
      "lon": 24.7536,
      "type": "city",
      "controlling_side": null,
      "country": "estonia"
    },
    {
      "id": "tallinn_port",
      "name": "Tallinn Port",
      "lat": 59.4444,
      "lon": 24.7519,
      "type": "port",
      "controlling_side": null,
      "country": "estonia"
    },
    {
      "id": "narva",
      "name": "Narva",
      "lat": 59.3769,
      "lon": 28.1795,
      "type": "city",
      "controlling_side": null,
      "country": "estonia"
    },
    {
      "id": "riga",
      "name": "Riga",
      "lat": 56.946,
      "lon": 24.1059,
      "type": "city",
      "controlling_side": null,
      "country": "latvia"
    },
    {
      "id": "riga_airport",
      "name": "Riga International Airport",
      "lat": 56.9236,
      "lon": 23.9711,
      "type": "airfield",
      "controlling_side": null,
      "country": "latvia"
    },
    {
      "id": "liepaja_port",
      "name": "Liepāja Naval Port",
      "lat": 56.5104,
      "lon": 21.0129,
      "type": "port",
      "controlling_side": null,
      "country": "latvia"
    },
    {
      "id": "ventspils",
      "name": "Ventspils Port",
      "lat": 57.3902,
      "lon": 21.564,
      "type": "port",
      "controlling_side": null,
      "country": "latvia"
    },
    {
      "id": "siauliai_ab",
      "name": "Šiauliai Air Base",
      "lat": 55.8939,
      "lon": 23.3953,
      "type": "airfield",
      "controlling_side": null,
      "country": "lithuania"
    },
    {
      "id": "vilnius",
      "name": "Vilnius",
      "lat": 54.6872,
      "lon": 25.2797,
      "type": "city",
      "controlling_side": null,
      "country": "lithuania"
    },
    {
      "id": "kaunas",
      "name": "Kaunas",
      "lat": 54.8985,
      "lon": 23.8832,
      "type": "city",
      "controlling_side": null,
      "country": "lithuania"
    },
    {
      "id": "klaipeda",
      "name": "Klaipėda Port",
      "lat": 55.7033,
      "lon": 21.1442,
      "type": "port",
      "controlling_side": null,
      "country": "lithuania"
    },
    {
      "id": "malbork_ab",
      "name": "Malbork Air Base",
      "lat": 54.0256,
      "lon": 19.1347,
      "type": "airfield",
      "controlling_side": null,
      "country": "poland"
    },
    {
      "id": "gdansk",
      "name": "Gdańsk",
      "lat": 54.352,
      "lon": 18.6466,
      "type": "city",
      "controlling_side": null,
      "country": "poland"
    },
    {
      "id": "gdynia_naval",
      "name": "Gdynia Naval Base",
      "lat": 54.5262,
      "lon": 18.5528,
      "type": "base",
      "controlling_side": null,
      "country": "poland"
    },
    {
      "id": "helsinki",
      "name": "Helsinki",
      "lat": 60.1699,
      "lon": 24.9384,
      "type": "city",
      "controlling_side": null,
      "country": "finland"
    },
    {
      "id": "helsinki_airport",
      "name": "Helsinki-Vantaa Airport",
      "lat": 60.3172,
      "lon": 24.9633,
      "type": "airfield",
      "controlling_side": null,
      "country": "finland"
    },
    {
      "id": "turku",
      "name": "Turku",
      "lat": 60.4518,
      "lon": 22.2666,
      "type": "port",
      "controlling_side": null,
      "country": "finland"
    },
    {
      "id": "stockholm",
      "name": "Stockholm",
      "lat": 59.3293,
      "lon": 18.0686,
      "type": "city",
      "controlling_side": null,
      "country": "sweden"
    },
    {
      "id": "gotland",
      "name": "Gotland (Visby)",
      "lat": 57.6389,
      "lon": 18.2947,
      "type": "base",
      "controlling_side": null,
      "country": "sweden"
    },
    {
      "id": "karlskrona",
      "name": "Karlskrona Naval Base",
      "lat": 56.1612,
      "lon": 15.5869,
      "type": "base",
      "controlling_side": null,
      "country": "sweden"
    },
    {
      "id": "kaliningrad",
      "name": "Kaliningrad",
      "lat": 54.7104,
      "lon": 20.51,
      "type": "city",
      "controlling_side": null,
      "country": "russia"
    },
    {
      "id": "baltiysk",
      "name": "Baltiysk Naval Base",
      "lat": 54.6521,
      "lon": 19.9,
      "type": "base",
      "controlling_side": null,
      "country": "russia"
    },
    {
      "id": "st_petersburg",
      "name": "St. Petersburg",
      "lat": 59.9343,
      "lon": 30.3351,
      "type": "city",
      "controlling_side": null,
      "country": "russia"
    },
    {
      "id": "kronstadt",
      "name": "Kronstadt Naval Base",
      "lat": 59.9948,
      "lon": 29.757,
      "type": "base",
      "controlling_side": null,
      "country": "russia"
    },
    {
      "id": "gulf_of_finland",
      "name": "Gulf of Finland",
      "lat": 60,
      "lon": 26,
      "type": "maritime",
      "controlling_side": null,
      "country": null
    },
    {
      "id": "baltic_central",
      "name": "Baltic Sea Central",
      "lat": 57.5,
      "lon": 19,
      "type": "maritime",
      "controlling_side": null,
      "country": null
    },
    {
      "id": "kaliningrad_sea",
      "name": "Kaliningrad Sea Approach",
      "lat": 55,
      "lon": 20,
      "type": "maritime",
      "controlling_side": null,
      "country": null
    },
    {
      "id": "danish_straits",
      "name": "Danish Straits",
      "lat": 55.8,
      "lon": 12.5,
      "type": "maritime",
      "controlling_side": null,
      "country": null
    }
  ],
  "units": [
    {
      "id": "blue_f35a_1782502314606",
      "name": "F-35A Lightning II (Blue) #1",
      "side": "blue",
      "unit_class": "air",
      "unit_type": "f35a",
      "sidc": "SFAPMFF----E---",
      "lat": 59.557064895269804,
      "lon": 23.330444335936335,
      "airborne": true,
      "loadout": "",
      "home_base_lat": null,
      "home_base_lon": null,
      "mission": {
        "type": "patrol",
        "objective_id": "helsinki",
        "patrol_lat": 59.557064895269804,
        "patrol_lon": 23.330444335936335,
        "target_unit_id": null,
        "status": "en_route"
      }
    },
    {
      "id": "blue_f35a_1782502315093",
      "name": "F-35A Lightning II (Blue) #2",
      "side": "blue",
      "unit_class": "air",
      "unit_type": "f35a",
      "sidc": "SFAPMFF----E---",
      "lat": 58.91080133651647,
      "lon": 23.44030761718554,
      "airborne": true,
      "loadout": "",
      "home_base_lat": null,
      "home_base_lon": null,
      "mission": {
        "type": "patrol",
        "objective_id": "tallinn",
        "patrol_lat": 58.91080133651647,
        "patrol_lon": 23.44030761718554,
        "target_unit_id": null,
        "status": "en_route"
      }
    },
    {
      "id": "red_su27s_1782502321633",
      "name": "Su-27S Flanker-B (Red) #1",
      "side": "red",
      "unit_class": "air",
      "unit_type": "su27s",
      "sidc": "SHAPMFF----E---",
      "lat": 59.707026712864206,
      "lon": 28.010620117185,
      "airborne": true,
      "loadout": "",
      "home_base_lat": null,
      "home_base_lon": null,
      "mission": {
        "type": "secure",
        "objective_id": "tallinn",
        "patrol_lat": 59.707026712864206,
        "patrol_lon": 28.010620117185,
        "target_unit_id": null,
        "status": "en_route"
      }
    },
    {
      "id": "red_su27s_1782502322118",
      "name": "Su-27S Flanker-B (Red) #2",
      "side": "red",
      "unit_class": "air",
      "unit_type": "su27s",
      "sidc": "SHAPMFF----E---",
      "lat": 59.17640659553538,
      "lon": 28.186401367185653,
      "airborne": true,
      "loadout": "",
      "home_base_lat": null,
      "home_base_lon": null,
      "mission": {
        "type": "secure",
        "objective_id": "tallinn",
        "patrol_lat": 59.17640659553538,
        "patrol_lon": 28.186401367185653,
        "target_unit_id": null,
        "status": "en_route"
      }
    },
    {
      "id": "red_su30sm_1782590922370",
      "name": "Su-30SM Flanker-H (Red) #1",
      "side": "red",
      "unit_class": "air",
      "unit_type": "su30sm",
      "sidc": "SHAPMFF----E---",
      "lat": 60.046623765546116,
      "lon": 27.792729782473714,
      "airborne": true,
      "loadout": "aa_focus",
      "home_base_lat": 59.9948,
      "home_base_lon": 29.757,
      "mission": {
        "type": "secure",
        "objective_id": "tallinn",
        "patrol_lat": 60.046623765546116,
        "patrol_lon": 27.792729782473714,
        "target_unit_id": null,
        "status": "en_route"
      }
    },
    {
      "id": "red_su30sm_1782590924607",
      "name": "Su-30SM Flanker-H (Red) #2",
      "side": "red",
      "unit_class": "air",
      "unit_type": "su30sm",
      "sidc": "SHAPMFF----E---",
      "lat": 59.85278567547584,
      "lon": 27.835342053947357,
      "airborne": true,
      "loadout": "aa_focus",
      "home_base_lat": 59.9948,
      "home_base_lon": 29.757,
      "mission": {
        "type": "secure",
        "objective_id": "tallinn",
        "patrol_lat": 59.85278567547584,
        "patrol_lon": 27.835342053947357,
        "target_unit_id": null,
        "status": "en_route"
      }
    },
    {
      "id": "red_su30sm_1782590987521",
      "name": "Su-30SM Flanker-H (Red) #3",
      "side": "red",
      "unit_class": "air",
      "unit_type": "su30sm",
      "sidc": "SHAPMFF----E---",
      "lat": 59.42651731647848,
      "lon": 27.836675094973117,
      "airborne": true,
      "loadout": "aa_focus",
      "home_base_lat": 59.9948,
      "home_base_lon": 29.757,
      "mission": {
        "type": "secure",
        "objective_id": "tallinn",
        "patrol_lat": 59.42651731647848,
        "patrol_lon": 27.836675094973117,
        "target_unit_id": null,
        "status": "en_route"
      }
    },
    {
      "id": "red_su30sm_1782590992537",
      "name": "Su-30SM Flanker-H (Red) #4",
      "side": "red",
      "unit_class": "air",
      "unit_type": "su30sm",
      "sidc": "SHAPMFF----E---",
      "lat": 59.577060584052305,
      "lon": 27.902593063724595,
      "airborne": true,
      "loadout": "aa_focus",
      "home_base_lat": 59.9948,
      "home_base_lon": 29.757,
      "mission": {
        "type": "secure",
        "objective_id": "tallinn",
        "patrol_lat": 59.577060584052305,
        "patrol_lon": 27.902593063724595,
        "target_unit_id": null,
        "status": "en_route"
      }
    }
  ],
  "coalitions": {
    "blue": [
      "estonia",
      "latvia",
      "lithuania",
      "poland",
      "finland",
      "sweden"
    ],
    "red": [
      "russia"
    ]
  }
}