{
  "name": "baltic_flashpoint",
  "start_time": "2024-06-15T04:00:00Z",
  "tick_duration_seconds": 60,
  "maritime_corridors": [
    [
      60.3,
      22
    ]
  ],
  "objectives": [
    {
      "id": "amari_ab",
      "name": "\u00c4mari Air Base",
      "lat": 59.482,
      "lon": 24.0808,
      "type": "airfield",
      "controlling_side": "blue"
    },
    {
      "id": "tallinn_port",
      "name": "Tallinn Port",
      "lat": 59.443,
      "lon": 24.749,
      "type": "port",
      "controlling_side": "blue"
    },
    {
      "id": "narva",
      "name": "Narva",
      "lat": 59.3769,
      "lon": 28.1789,
      "type": "city",
      "controlling_side": null
    },
    {
      "id": "tartu",
      "name": "Tartu",
      "lat": 58.378,
      "lon": 26.729,
      "type": "city",
      "controlling_side": "blue"
    },
    {
      "id": "paldiski",
      "name": "Paldiski Naval Base",
      "lat": 59.349,
      "lon": 24.047,
      "type": "base",
      "controlling_side": "blue"
    },
    {
      "id": "pskov_ab",
      "name": "Pskov Air Base",
      "lat": 57.7839,
      "lon": 28.3956,
      "type": "airfield",
      "controlling_side": "red"
    },
    {
      "id": "kingisepp",
      "name": "Kingisepp",
      "lat": 59.3724,
      "lon": 28.6142,
      "type": "city",
      "controlling_side": "red"
    },
    {
      "id": "gulf_choke",
      "name": "Gulf of Finland \u2014 Western Approach",
      "lat": 59.6,
      "lon": 24.5,
      "type": "maritime",
      "controlling_side": null
    },
    {
      "id": "gulf_east",
      "name": "Gulf of Finland \u2014 Eastern Approach",
      "lat": 59.75,
      "lon": 27.5,
      "type": "maritime",
      "controlling_side": null
    }
  ],
  "units": [
    {
      "id": "blue_f16_1",
      "name": "Viper Sqn (F-16C)",
      "side": "blue",
      "unit_class": "air",
      "unit_type": "f16c",
      "sidc": "SFAPCFF----H---",
      "lat": 59.482,
      "lon": 24.0808,
      "airborne": false,
      "loadout": "aa_focus",
      "home_base_lat": 59.482,
      "home_base_lon": 24.0808
    },
    {
      "id": "blue_armor_1",
      "name": "1 Armd Bn (Challenger 2)",
      "side": "blue",
      "unit_class": "ground",
      "unit_type": "challenger2",
      "sidc": "SFGPUCA----H---",
      "lat": 59.3769,
      "lon": 28.15,
      "airborne": true,
      "loadout": "standard",
      "home_base_lat": 59.3769,
      "home_base_lon": 28.15
    },
    {
      "id": "blue_himars_1",
      "name": "1 HIMARS Bn",
      "side": "blue",
      "unit_class": "ground",
      "unit_type": "himars",
      "sidc": "SFGPUCIZ---H---",
      "lat": 59.437,
      "lon": 24.7536,
      "airborne": true,
      "loadout": "gmlrs",
      "home_base_lat": 59.437,
      "home_base_lon": 24.7536
    },
    {
      "id": "blue_frigate_1",
      "name": "HNLMS De Ruyter (F803)",
      "side": "blue",
      "unit_class": "naval",
      "unit_type": "frigate_hnlms",
      "sidc": "SFSPCLS----H---",
      "lat": 59,
      "lon": 22.5,
      "airborne": true,
      "loadout": "aaw_focus",
      "home_base_lat": 59.349,
      "home_base_lon": 24.047
    },
    {
      "id": "blue_inf_1",
      "name": "3 Inf Bn (LT)",
      "side": "blue",
      "unit_class": "ground",
      "unit_type": "infantry_light",
      "sidc": "SFGPUCI----H---",
      "lat": 58.378,
      "lon": 26.729,
      "airborne": true,
      "loadout": "standard",
      "home_base_lat": 58.378,
      "home_base_lon": 26.729
    },
    {
      "id": "red_su27_1",
      "name": "159 IAP (Su-27)",
      "side": "red",
      "unit_class": "air",
      "unit_type": "su27s",
      "sidc": "SHAPCFF----H---",
      "lat": 57.7839,
      "lon": 28.3956,
      "airborne": false,
      "loadout": "aa_focus",
      "home_base_lat": 57.7839,
      "home_base_lon": 28.3956
    },
    {
      "id": "red_armor_1",
      "name": "6 Armd Bn (T-80U)",
      "side": "red",
      "unit_class": "ground",
      "unit_type": "t80u",
      "sidc": "SHGPUCA----H---",
      "lat": 57.8194,
      "lon": 28.3319,
      "airborne": true,
      "loadout": "standard",
      "home_base_lat": 57.8194,
      "home_base_lon": 28.3319
    },
    {
      "id": "red_iskander_1",
      "name": "26 Bde (Iskander-M)",
      "side": "red",
      "unit_class": "ground",
      "unit_type": "iskander_m",
      "sidc": "SHGPUCIZ---H---",
      "lat": 59.3724,
      "lon": 28.6142,
      "airborne": true,
      "loadout": "strike",
      "home_base_lat": 59.3724,
      "home_base_lon": 28.6142
    },
    {
      "id": "red_cruiser_1",
      "name": "Slava CG (Red Fleet)",
      "side": "red",
      "unit_class": "naval",
      "unit_type": "slava_cg",
      "sidc": "SHSPCLCC---H---",
      "lat": 59.7,
      "lon": 27.5,
      "airborne": true,
      "loadout": "anti_ship",
      "home_base_lat": 59.5,
      "home_base_lon": 29.8
    },
    {
      "id": "red_inf_1",
      "name": "76 BTG (VDV)",
      "side": "red",
      "unit_class": "ground",
      "unit_type": "vdv_btg",
      "sidc": "SHGPUCI----H---",
      "lat": 59.376,
      "lon": 28.2115,
      "airborne": true,
      "loadout": "standard",
      "home_base_lat": 59.376,
      "home_base_lon": 28.2115
    }
  ]
}